[
    {
        "university": "영남대",
        "lat": 35.8264595,
        "lng": 128.754132,
        "location": "대한민국 경상북도 경산시 대학로 280"
    },
    {
        "university": "경주대",
        "lat": 35.8298508,
        "lng": 129.1619766,
        "location": "대한민국 경상북도 경주시 효현동 태종로 188 KR"
    },
    {
        "university": "삼육대",
        "lat": 37.6435824,
        "lng": 127.1063459,
        "location": "대한민국 서울특별시 노원구 화랑로 815"
    },
    {
        "university": "경운대",
        "lat": 36.1691464,
        "lng": 128.4679212,
        "location": "대한민국 경상북도 구미시 산동면 강동로 730"
    },
    {
        "university": "한신대",
        "lat": 37.1933281,
        "lng": 127.0225987,
        "location": "대한민국 경기도 오산시 한신대길 137"
    },
    {
        "university": "영산대(양산)",
        "lat": 35.428846,
        "lng": 129.148227,
        "location": "대한민국 경상남도 양산시 주남로 288"
    },
    {
        "university": "한국전통문화대",
        "lat": 35.907757,
        "lng": 127.766922,
        "location": "대한민국"
    },
    {
        "university": "한국외대(글로벌)",
        "lat": 37.3392476,
        "lng": 127.2625483,
        "location": "대한민국 경기도 용인시 처인구 모현읍 외대로 81"
    },
    {
        "university": "광주교대",
        "lat": 35.1646779,
        "lng": 126.9267856,
        "location": "대한민국 광주광역시 북구 필문대로 55"
    },
    {
        "university": "광주여대",
        "lat": 35.1636755,
        "lng": 126.7974994,
        "location": "대한민국 광주광역시 광산구 광주여대길 40"
    },
    {
        "university": "동양대(동두천)",
        "lat": 37.9333158,
        "lng": 127.0549831,
        "location": "대한민국 경기도 동두천시 동두천동 289-185"
    },
    {
        "university": "서울여대",
        "lat": 37.6281126,
        "lng": 127.0904568,
        "location": "대한민국 서울특별시 노원구 화랑로 621"
    },
    {
        "university": "영산대(부산)",
        "lat": 35.223885,
        "lng": 129.1569793,
        "location": "대한민국 부산광역시 해운대구 반송순환로 142"
    },
    {
        "university": "성공회대",
        "lat": 37.4877355,
        "lng": 126.825157,
        "location": "대한민국 서울특별시 구로구 연동로 320"
    },
    {
        "university": "초당대",
        "lat": 34.9778841,
        "lng": 126.4728807,
        "location": "대한민국 전라남도 무안군 무안읍 무안로 380"
    },
    {
        "university": "신라대",
        "lat": 35.16792,
        "lng": 128.9970255,
        "location": "대한민국 부산광역시 사상구 백양대로700번길 140"
    },
    {
        "university": "상지대",
        "lat": 37.3706973,
        "lng": 127.9280728,
        "location": "대한민국 강원도 원주시 상지대길 83"
    },
    {
        "university": "총신대",
        "lat": 37.4886232,
        "lng": 126.9668169,
        "location": "대한민국 서울특별시 동작구 사당로 143"
    },
    {
        "university": "서울대",
        "lat": 37.4593505,
        "lng": 126.9511364,
        "location": "대한민국 서울특별시 관악구 관악로 1"
    },
    {
        "university": "한라대",
        "lat": 37.302771,
        "lng": 127.9077884,
        "location": "대한민국 강원도 원주시 흥업면 한라대길 28"
    },
    {
        "university": "한밭대",
        "lat": 36.3509246,
        "lng": 127.3010886,
        "location": "대한민국 대전광역시 유성구 동서대로 125"
    },
    {
        "university": "청운대(홍성)",
        "lat": 36.5811832,
        "lng": 126.662175,
        "location": "대한민국 충청남도 홍성군 홍성읍 대학길 25"
    },
    {
        "university": "덕성여대",
        "lat": 37.6511988,
        "lng": 127.0161604,
        "location": "대한민국 서울특별시 도봉구 삼양로144길 33"
    },
    {
        "university": "차의과학대",
        "lat": 37.856752,
        "lng": 127.137807,
        "location": "대한민국 경기도 포천시 동교동 해룡로 120"
    },
    {
        "university": "한국교통대(충주)",
        "lat": 36.969836,
        "lng": 127.8717685,
        "location": "대한민국 충청북도 충주시 대소원면 대학로 50"
    },
    {
        "university": "가톨릭대(성심)",
        "lat": 37.4865549,
        "lng": 126.8018828,
        "location": "대한민국 경기도 부천시 원미구 지봉로 43"
    },
    {
        "university": "중앙대(안성)",
        "lat": 37.03503300000001,
        "lng": 127.3027301,
        "location": "대한민국 경기도 안성시"
    },
    {
        "university": "한국성서대",
        "lat": 37.6486885,
        "lng": 127.0642073,
        "location": "대한민국 서울특별시 노원구 동일로214길 32"
    },
    {
        "university": "서울시립대",
        "lat": 37.5838657,
        "lng": 127.0587771,
        "location": "대한민국 서울특별시 동대문구 서울시립대로 163"
    },
    {
        "university": "을지대(성남)",
        "lat": 37.4604593,
        "lng": 127.1649651,
        "location": "대한민국 경기도 성남시 수정구 산성대로 553"
    },
    {
        "university": "경인교대",
        "lat": 37.5373352,
        "lng": 126.7170858,
        "location": "대한민국 인천광역시 계양구 계산1동 계산로 62"
    },
    {
        "university": "신한대(의정부)",
        "lat": 37.7095512,
        "lng": 127.046037,
        "location": "대한민국 경기도 의정부시 호암로 95"
    },
    {
        "university": "서울장신대",
        "lat": 37.4101605,
        "lng": 127.2473156,
        "location": "대한민국 경기도 광주시 경안로 145 KR"
    },
    {
        "university": "신한대(동두천)",
        "lat": 37.916543,
        "lng": 127.0779171,
        "location": "대한민국 경기도 동두천시"
    },
    {
        "university": "육군사관학교",
        "lat": 37.6238188,
        "lng": 127.0988783,
        "location": "대한민국 서울특별시 노원구 화랑로 574"
    },
    {
        "university": "금오공과대",
        "lat": 36.1460625,
        "lng": 128.3934375,
        "location": "대한민국 경상북도 구미시 대학로 61"
    },
    {
        "university": "김천대",
        "lat": 36.1397984,
        "lng": 128.0786254,
        "location": "대한민국 경상북도 김천시 대학로 214"
    },
    {
        "university": "가톨릭대(성신)",
        "lat": 37.5857654,
        "lng": 127.0048121,
        "location": "대한민국 서울특별시 종로구 창경궁로 296-12"
    },
    {
        "university": "인제대(김해)",
        "lat": 35.2481236,
        "lng": 128.9027787,
        "location": "대한민국 경상남도 김해시 인제로 197"
    },
    {
        "university": "중부대(고양)",
        "lat": 37.713203,
        "lng": 126.8900751,
        "location": "대한민국 경기도 고양시 덕양구 대자동 동헌로 305"
    },
    {
        "university": "중앙대(서울)",
        "lat": 37.5050881,
        "lng": 126.9571012,
        "location": "대한민국 서울특별시 동작구 흑석로 84"
    },
    {
        "university": "진주교대",
        "lat": 35.1863055,
        "lng": 128.0671967,
        "location": "대한민국 경상남도 진주시 신안동 진양호로369번길 3"
    },
    {
        "university": "한국기술교육대",
        "lat": 36.763718,
        "lng": 127.2819405,
        "location": "대한민국 충청남도 천안시 동남구 병천면 충절로 1600"
    },
    {
        "university": "강원대(삼척)",
        "lat": 37.4538118,
        "lng": 129.1623725,
        "location": "대한민국 강원도 삼척시 중앙로"
    },
    {
        "university": "대구대",
        "lat": 35.9021687,
        "lng": 128.849098,
        "location": "대한민국 경상북도 경산시 진량읍 대구대로 201"
    },
    {
        "university": "공군사관학교",
        "lat": 36.5795784,
        "lng": 127.5279316,
        "location": "대한민국 충청북도 청주시 상당구 남일면 단재로 635"
    },
    {
        "university": "전남대(광주)",
        "lat": 35.1755091,
        "lng": 126.9071166,
        "location": "대한민국 광주광역시 북구 용봉로 77"
    },
    {
        "university": "국군간호사관학교",
        "lat": 36.3996381,
        "lng": 127.3550991,
        "location": "대한민국 대전광역시 유성구 자운로 90"
    },
    {
        "university": "명지대(용인)",
        "lat": 37.2214872,
        "lng": 127.2218612,
        "location": "대한민국 경기도 용인시"
    },
    {
        "university": "한성대",
        "lat": 37.58284829999999,
        "lng": 127.0105811,
        "location": "대한민국 서울특별시 성북구 삼선교로16길 116"
    },
    {
        "university": "세명대",
        "lat": 37.1780767,
        "lng": 128.195446,
        "location": "대한민국 충청북도 제천시 세명로 65"
    },
    {
        "university": "배재대",
        "lat": 36.3217923,
        "lng": 127.3672754,
        "location": "대한민국 대전광역시 서구 배재로 155-40"
    },
    {
        "university": "한서대",
        "lat": 36.6907235,
        "lng": 126.5846966,
        "location": "대한민국 충청남도 서산시 해미면 한서1로 46"
    },
    {
        "university": "남부대",
        "lat": 35.2075205,
        "lng": 126.8419084,
        "location": "대한민국 광주광역시 광산구 첨단중앙로 23"
    },
    {
        "university": "경남과학기술대",
        "lat": 35.1807266,
        "lng": 128.0940397,
        "location": "대한민국 경상남도 진주시 동진로 33"
    },
    {
        "university": "홍익대(세종)",
        "lat": 36.6209818,
        "lng": 127.2873566,
        "location": "대한민국 세종특별자치시 조치원읍 세종로 2639"
    },
    {
        "university": "충남대",
        "lat": 36.3696055,
        "lng": 127.3442843,
        "location": "대한민국 대전광역시 유성구 대학로 99"
    },
    {
        "university": "호서대(아산)",
        "lat": 36.736388,
        "lng": 127.0751324,
        "location": "대한민국 충청남도 아산시 배방읍 호서로79번길 20"
    },
    {
        "university": "고려대(서울)",
        "lat": 37.59040299999999,
        "lng": 127.035926,
        "location": "대한민국 서울특별시 성북구 종암동 고려대"
    },
    {
        "university": "동명대",
        "lat": 35.1208085,
        "lng": 129.1012215,
        "location": "대한민국 부산광역시 남구 신선로 428"
    },
    {
        "university": "동서대",
        "lat": 35.1461119,
        "lng": 129.0070218,
        "location": "대한민국 부산광역시 사상구 주례로 47"
    },
    {
        "university": "군산대",
        "lat": 35.9470221,
        "lng": 126.6815184,
        "location": "대한민국 전라북도 군산시 대학로 558"
    },
    {
        "university": "호원대",
        "lat": 35.9660343,
        "lng": 126.8648816,
        "location": "대한민국 전라북도 군산시 임피면 호원대3길 64"
    },
    {
        "university": "광운대",
        "lat": 37.6194277,
        "lng": 127.05982,
        "location": "대한민국 서울특별시 노원구 광운로 20"
    },
    {
        "university": "숭실대",
        "lat": 37.4963538,
        "lng": 126.9572222,
        "location": "대한민국 서울특별시 동작구 상도로 369"
    },
    {
        "university": "한국외대(서울)",
        "lat": 37.5974453,
        "lng": 127.0588002,
        "location": "대한민국 서울특별시 동대문구 이문로 107"
    },
    {
        "university": "성결대",
        "lat": 37.3793231,
        "lng": 126.9281851,
        "location": "대한민국 경기도 안양시 만안구 성결대학로 53"
    },
    {
        "university": "인천대",
        "lat": 37.3749658,
        "lng": 126.6322345,
        "location": "대한민국 인천광역시 연수구 아카데미로 119"
    },
    {
        "university": "경동대(원주문막)",
        "lat": 37.2646325,
        "lng": 127.7922161,
        "location": "대한민국 강원도 원주시 문막읍 후용리 902"
    },
    {
        "university": "경남대",
        "lat": 35.18035,
        "lng": 128.553385,
        "location": "대한민국 창원시"
    },
    {
        "university": "부산외국어대",
        "lat": 35.2673966,
        "lng": 129.0787513,
        "location": "대한민국 부산광역시 금정구 금샘로485번길 65"
    },
    {
        "university": "서울교대",
        "lat": 37.4901737,
        "lng": 127.0162346,
        "location": "대한민국 서울특별시 서초구 서초중앙로 96"
    },
    {
        "university": "광주대",
        "lat": 35.1074896,
        "lng": 126.8956046,
        "location": "대한민국 광주광역시 남구 효덕로 277"
    },
    {
        "university": "호남대",
        "lat": 35.1504723,
        "lng": 126.768901,
        "location": "대한민국 광주광역시 광산구 호남대길 100"
    },
    {
        "university": "홍익대(서울)",
        "lat": 37.5507563,
        "lng": 126.9254901,
        "location": "대한민국 서울특별시 마포구 와우산로 94"
    },
    {
        "university": "우석대(진천)",
        "lat": 36.8452512,
        "lng": 127.4371594,
        "location": "대한민국 충청북도 진천군 진천읍 대학로 66"
    },
    {
        "university": "동아대",
        "lat": 35.116637,
        "lng": 128.9684964,
        "location": "대한민국 부산광역시 사하구 낙동대로550번길 37"
    },
    {
        "university": "아주대",
        "lat": 37.2840931,
        "lng": 127.0453753,
        "location": "대한민국 경기도 수원시 영통구 월드컵로 206"
    },
    {
        "university": "한림대",
        "lat": 37.8839362,
        "lng": 127.7378349,
        "location": "대한민국 강원도 춘천시 한림대학길 1"
    },
    {
        "university": "송원대",
        "lat": 35.1086218,
        "lng": 126.8747229,
        "location": "대한민국 광주광역시 남구 송암로 73"
    },
    {
        "university": "강릉원주대(강릉)",
        "lat": 37.7701317,
        "lng": 128.8690744,
        "location": "대한민국 강원도 강릉시 죽헌길 7"
    },
    {
        "university": "평택대",
        "lat": 36.9948593,
        "lng": 127.1329552,
        "location": "대한민국 경기도 평택시 서동대로 3825"
    },
    {
        "university": "가톨릭대(성의)",
        "lat": 37.5003721,
        "lng": 127.0059955,
        "location": "대한민국 서울특별시 서초구 반포동 반포대로 222"
    },
    {
        "university": "동국대(경주)",
        "lat": 35.86224780000001,
        "lng": 129.195123,
        "location": "대한민국 경상북도 경주시 석장동 707"
    },
    {
        "university": "건국대(서울)",
        "lat": 37.5407625,
        "lng": 127.0793428,
        "location": "대한민국 서울특별시 광진구 능동로 120"
    },
    {
        "university": "호서대(천안)",
        "lat": 36.8279104,
        "lng": 127.1833844,
        "location": "대한민국 충청남도 천안시 동남구 호서대길 12"
    },
    {
        "university": "원광대",
        "lat": 35.9682695,
        "lng": 126.9585945,
        "location": "대한민국 전라북도 익산시 익산대로 460"
    },
    {
        "university": "조선대",
        "lat": 35.1414883,
        "lng": 126.9320739,
        "location": "대한민국 광주광역시 동구 서석동 조선대길 146"
    },
    {
        "university": "한국예술종합학교",
        "lat": 37.4779073,
        "lng": 127.0107466,
        "location": "대한민국 서울특별시"
    },
    {
        "university": "경기대(서울)",
        "lat": 37.5647399,
        "lng": 126.9619161,
        "location": "대한민국 서울특별시 서대문구 경기대로9길 24"
    },
    {
        "university": "동덕여대",
        "lat": 37.6068163,
        "lng": 127.0423832,
        "location": "대한민국 서울특별시 성북구 화랑로13길 60"
    },
    {
        "university": "공주교대",
        "lat": 36.4442848,
        "lng": 127.1187091,
        "location": "대한민국 충청남도 공주시 웅진로 27"
    },
    {
        "university": "대구예술대",
        "lat": 36.0329149,
        "lng": 128.5101988,
        "location": "대한민국 경상북도 칠곡군 가산면 다부거문1길 202"
    },
    {
        "university": "경희대(서울)",
        "lat": 37.5518911,
        "lng": 126.9917937,
        "location": "대한민국 서울특별시"
    },
    {
        "university": "대구교대",
        "lat": 35.8526417,
        "lng": 128.5885005,
        "location": "대한민국 대구광역시 남구 중앙대로 219"
    },
    {
        "university": "침례신학대",
        "lat": 36.3864903,
        "lng": 127.3254589,
        "location": "대한민국 대전광역시 유성구 하기동 북유성대로 190"
    },
    {
        "university": "신경대",
        "lat": 37.2026601,
        "lng": 126.8394376,
        "location": "대한민국 경기도 화성시 남양읍 남양중앙로 400-5"
    },
    {
        "university": "세한대(영암)",
        "lat": 34.747755,
        "lng": 126.484424,
        "location": "대한민국 영암군"
    },
    {
        "university": "남서울대",
        "lat": 36.909155,
        "lng": 127.144395,
        "location": "대한민국 충청남도 천안시 서북구 성환읍 대학로 91"
    },
    {
        "university": "서경대",
        "lat": 37.6148855,
        "lng": 127.0133508,
        "location": "대한민국 서울특별시 성북구 서경로 124"
    },
    {
        "university": "대진대",
        "lat": 37.871337,
        "lng": 127.1566485,
        "location": "대한민국 경기도 포천시 호국로 1007"
    },
    {
        "university": "한세대",
        "lat": 37.3468471,
        "lng": 126.9524528,
        "location": "대한민국 경기도 군포시 한세로 30"
    },
    {
        "university": "가톨릭관동대",
        "lat": 37.7382831,
        "lng": 128.8766612,
        "location": "대한민국 강원도 강릉시 범일로579번길 24"
    },
    {
        "university": "가야대",
        "lat": 35.2694115,
        "lng": 128.8738294,
        "location": "대한민국 경상남도 김해시 삼계로 208"
    },
    {
        "university": "추계예술대",
        "lat": 37.5622814,
        "lng": 126.9546074,
        "location": "대한민국 서울특별시 서대문구 북아현로11가길 7"
    },
    {
        "university": "국민대",
        "lat": 37.6108694,
        "lng": 126.9972889,
        "location": "대한민국 서울특별시 성북구 정릉로 77"
    },
    {
        "university": "나사렛대",
        "lat": 36.7962041,
        "lng": 127.1185261,
        "location": "대한민국 충청남도 천안시 서북구 월봉로 48"
    },
    {
        "university": "경희대(국제)",
        "lat": 37.2429616,
        "lng": 127.0800525,
        "location": "대한민국 경기도 용인시 기흥구 덕영대로 1732"
    },
    {
        "university": "경북대(대구)",
        "lat": 35.8294374,
        "lng": 128.5655119,
        "location": "대한민국 대구광역시"
    },
    {
        "university": "전북대(특성화)",
        "lat": 35.9421556,
        "lng": 126.9604472,
        "location": "대한민국 전라북도 익산시 고봉로 79"
    },
    {
        "university": "한려대",
        "lat": 34.9558873,
        "lng": 127.5639835,
        "location": "대한민국 전라남도 광양시 광양읍 한려대길 94-13"
    },
    {
        "university": "서강대",
        "lat": 37.5509442,
        "lng": 126.9410023,
        "location": "대한민국 서울특별시 마포구 백범로 35"
    },
    {
        "university": "백석대",
        "lat": 36.8394518,
        "lng": 127.1839014,
        "location": "대한민국 충청남도 천안시 동남구 백석대학로 1"
    },
    {
        "university": "한국국제대",
        "lat": 35.17349970000001,
        "lng": 128.2031031,
        "location": "대한민국 경상남도 진주시 문산읍 동부로 965"
    },
    {
        "university": "한국교통대(증평)",
        "lat": 36.7864783,
        "lng": 127.6046068,
        "location": "대한민국 충청북도 증평군"
    },
    {
        "university": "강원대(도계)",
        "lat": 37.2248126,
        "lng": 129.0964569,
        "location": "대한민국 강원도 삼척시 도계읍 황조길 346"
    },
    {
        "university": "계명대",
        "lat": 35.85584619999999,
        "lng": 128.4889252,
        "location": "대한민국 대구광역시 달서구 신당동 달구벌대로 1095"
    },
    {
        "university": "유원대",
        "lat": 36.19579900000001,
        "lng": 127.799512,
        "location": "대한민국 충청북도 영동군 영동읍 대학로 310"
    },
    {
        "university": "경상대",
        "lat": 35.1530444,
        "lng": 128.1010899,
        "location": "대한민국 경상남도 진주시 진주대로 501"
    },
    {
        "university": "중부대(충청)",
        "lat": 36.1921305,
        "lng": 127.4490093,
        "location": "대한민국 충청남도 금산군 추부면 대학로 201 KR"
    },
    {
        "university": "부산대",
        "lat": 35.2339681,
        "lng": 129.0806855,
        "location": "대한민국 부산광역시 금정구 부산대학로63번길 2"
    },
    {
        "university": "인제대(부산)",
        "lat": 35.1455522,
        "lng": 129.0209286,
        "location": "대한민국 부산광역시 부산진구 복지로 75"
    },
    {
        "university": "이화여대",
        "lat": 37.5618588,
        "lng": 126.9468339,
        "location": "대한민국 서울특별시 서대문구 이화여대길 52"
    },
    {
        "university": "한동대",
        "lat": 36.102232,
        "lng": 129.3897838,
        "location": "대한민국 경상북도 포항시 북구 흥해읍 한동로 558"
    },
    {
        "university": "DGIST",
        "lat": 35.7046875,
        "lng": 128.4570625,
        "location": "Daegu Gyeongbuk, Institute of Science and Technology, 달성군 대구광역시 대한민국"
    },
    {
        "university": "건양대(논산)",
        "lat": 36.1821467,
        "lng": 127.1086914,
        "location": "대한민국 충청남도 논산시 대학로 121"
    },
    {
        "university": "용인대",
        "lat": 37.2266747,
        "lng": 127.1681805,
        "location": "대한민국 경기도 용인시 처인구 용인대학로 134"
    },
    {
        "university": "단국대(천안)",
        "lat": 36.804138,
        "lng": 127.2025586,
        "location": "대한민국 충청남도 천안시"
    },
    {
        "university": "한경대",
        "lat": 37.0116265,
        "lng": 127.2642483,
        "location": "대한민국 경기도 안성시 중앙로 327"
    },
    {
        "university": "청주대",
        "lat": 36.6522355,
        "lng": 127.4946216,
        "location": "대한민국 충청북도 청주시 청원구 대성로 298"
    },
    {
        "university": "공주대(공주)",
        "lat": 36.47982,
        "lng": 127.0752196,
        "location": "대한민국 충청남도 공주시"
    },
    {
        "university": "고신대",
        "lat": 35.0796217,
        "lng": 129.0630066,
        "location": "대한민국 부산광역시"
    },
    {
        "university": "전남대(여수)",
        "lat": 34.77487,
        "lng": 127.6994546,
        "location": "대한민국 전라남도 여수시 대학로 50"
    },
    {
        "university": "목원대",
        "lat": 36.3261215,
        "lng": 127.3387606,
        "location": "대한민국 대전광역시 서구 도안북로 88"
    },
    {
        "university": "목포해양대",
        "lat": 34.7918033,
        "lng": 126.3651007,
        "location": "대한민국 전라남도 목포시 죽교동 해양대학로 91 KR"
    },
    {
        "university": "KAIST",
        "lat": 36.3721427,
        "lng": 127.36039,
        "location": "대한민국 대전광역시 유성구 대학로 291"
    },
    {
        "university": "경일대",
        "lat": 35.9079712,
        "lng": 128.8012825,
        "location": "대한민국 경상북도 경산시 하양읍 가마실길 50"
    },
    {
        "university": "경동대(양주)",
        "lat": 37.8097442,
        "lng": 127.0714039,
        "location": "대한민국 경기도 양주시 고암동 청담로 95"
    },
    {
        "university": "부산가톨릭대",
        "lat": 35.2448396,
        "lng": 129.0978032,
        "location": "대한민국 부산광역시 금정구 오륜대로 57"
    },
    {
        "university": "부산교대",
        "lat": 35.19544339999999,
        "lng": 129.0750953,
        "location": "대한민국 부산광역시 연제구 교대로 24"
    },
    {
        "university": "창신대",
        "lat": 35.2446879,
        "lng": 128.5996133,
        "location": "대한민국 경상남도 창원시 마산회원구 팔용로 262"
    },
    {
        "university": "KC대",
        "lat": 37.5483449,
        "lng": 126.8547974,
        "location": "대한민국 서울특별시 강서구 까치산로24길 47"
    },
    {
        "university": "순천대",
        "lat": 34.9687735,
        "lng": 127.4802359,
        "location": "대한민국 전라남도 순천시 중앙로 255"
    },
    {
        "university": "한남대",
        "lat": 36.3546616,
        "lng": 127.4210188,
        "location": "대한민국 대전광역시 대덕구 한남로 70"
    },
    {
        "university": "UNIST",
        "lat": 35.5734176,
        "lng": 129.189629,
        "location": "대한민국 울산광역시 울주군 언양읍 유니스트길 50"
    },
    {
        "university": "경성대",
        "lat": 35.1397716,
        "lng": 129.0984966,
        "location": "대한민국 부산광역시 남구 수영로 309"
    },
    {
        "university": "동양대(영주)",
        "lat": 36.883202,
        "lng": 128.5337833,
        "location": "대한민국 경상북도 영주시 풍기읍 동양대로 145"
    },
    {
        "university": "가천대(메디컬)",
        "lat": 37.4508279,
        "lng": 126.7082138,
        "location": "대한민국 인천광역시 남동구 독점로3번길 38-13"
    },
    {
        "university": "호서대(당진)",
        "lat": 37.0029772,
        "lng": 126.5848518,
        "location": "대한민국 충청남도 당진시 석문면 산단 7로 201"
    },
    {
        "university": "충북대",
        "lat": 36.6284028,
        "lng": 127.4592136,
        "location": "대한민국 충청북도 청주시 서원구 충대로 1"
    },
    {
        "university": "예수대",
        "lat": 35.8155509,
        "lng": 127.1345338,
        "location": "대한민국 전라북도 전주시 완산구 서원로 383"
    },
    {
        "university": "연세대(서울)",
        "lat": 37.5663937,
        "lng": 126.9387066,
        "location": "대한민국 서울특별시 서대문구 연세로 50"
    },
    {
        "university": "경북대(상주)",
        "lat": 36.3788636,
        "lng": 128.1453317,
        "location": "대한민국 경상북도 상주시 경상대로 2559"
    },
    {
        "university": "전주교대",
        "lat": 35.80913779999999,
        "lng": 127.155104,
        "location": "대한민국 전라북도 전주시 완산구 서학로 50"
    },
    {
        "university": "제주대",
        "lat": 33.4547583,
        "lng": 126.5622562,
        "location": "대한민국 제주특별자치도 제주시 특별자치도 제주대학로 102"
    },
    {
        "university": "창원대",
        "lat": 35.245595,
        "lng": 128.691953,
        "location": "대한민국 경상남도 창원시 의창구 창원대학로 20"
    },
    {
        "university": "동신대",
        "lat": 35.0506154,
        "lng": 126.7198344,
        "location": "대한민국 전라남도 나주시 동신대길 67"
    },
    {
        "university": "한일장신대",
        "lat": 35.7636976,
        "lng": 127.2063688,
        "location": "대한민국 전라북도 완주군 상관면 왜목로 726-15"
    },
    {
        "university": "을지대(대전)",
        "lat": 36.3329549,
        "lng": 127.4055284,
        "location": "대한민국 대전광역시 중구 목동 계룡로771번길 77"
    },
    {
        "university": "상명대(천안)",
        "lat": 37.602638,
        "lng": 126.955252,
        "location": "대한민국 서울특별시 종로구 홍지문2길 20"
    },
    {
        "university": "강남대",
        "lat": 37.27574,
        "lng": 127.13249,
        "location": "대한민국 경기도 용인시 기흥구 강남로 40"
    },
    {
        "university": "강릉원주대(원주)",
        "lat": 37.3082307,
        "lng": 127.9294889,
        "location": "대한민국 강원도 원주시"
    },
    {
        "university": "동의대",
        "lat": 35.1415069,
        "lng": 129.0335365,
        "location": "대한민국 부산광역시 부산진구 엄광로 176"
    },
    {
        "university": "순천향대",
        "lat": 36.7696489,
        "lng": 126.9324079,
        "location": "대한민국 충청남도 아산시 신창면 순천향로 22"
    },
    {
        "university": "동국대(서울)",
        "lat": 37.5582876,
        "lng": 127.0001671,
        "location": "대한민국 서울특별시 중구 필동로1길 30"
    },
    {
        "university": "예원예술대(전북)",
        "lat": 35.6471012,
        "lng": 127.2710302,
        "location": "대한민국 전라북도 임실군 신평면 창인로 117"
    },
    {
        "university": "예원예술대(양주)",
        "lat": 37.8086632,
        "lng": 127.001143,
        "location": "대한민국 경기도 양주시"
    },
    {
        "university": "우석대(완주)",
        "lat": 35.9126534,
        "lng": 127.0667004,
        "location": "대한민국 전라북도 완주군 삼례읍 삼례로 443"
    },
    {
        "university": "선문대",
        "lat": 36.7989764,
        "lng": 127.0750025,
        "location": "대한민국 충청남도 아산시 탕정면 선문로221번길 70"
    },
    {
        "university": "공주대(예산)",
        "lat": 36.669692,
        "lng": 126.8606966,
        "location": "대한민국 충청남도 예산군 예산읍 대학로 54"
    },
    {
        "university": "인천가톨릭대(송도)",
        "lat": 37.3860959,
        "lng": 126.6389202,
        "location": "대한민국 인천광역시 연수구 송도동"
    },
    {
        "university": "제주국제대",
        "lat": 33.4402449,
        "lng": 126.571466,
        "location": "대한민국 제주특별자치도 제주시 516로 2870"
    },
    {
        "university": "한국체육대",
        "lat": 37.5196266,
        "lng": 127.1309837,
        "location": "대한민국 서울특별시 송파구 양재대로 1239"
    },
    {
        "university": "인하대",
        "lat": 37.4500221,
        "lng": 126.653488,
        "location": "대한민국 인천광역시 미추홀구 인하로 100"
    },
    {
        "university": "울산대",
        "lat": 35.5437411,
        "lng": 129.2562843,
        "location": "대한민국 울산광역시 남구 대학로 93"
    },
    {
        "university": "공주대(천안)",
        "lat": 36.8511811,
        "lng": 127.1511352,
        "location": "대한민국 충청남도 천안시 서북구 천안대로 1223-24"
    },
    {
        "university": "장로회신학대",
        "lat": 37.550118,
        "lng": 127.1038593,
        "location": "대한민국 서울특별시 광진구 광장로5길 25-1"
    },
    {
        "university": "안양대(강화)",
        "lat": 37.7117023,
        "lng": 126.4450135,
        "location": "대한민국 인천광역시 강화군 불은면 중앙로 602-14"
    },
    {
        "university": "서울한영대",
        "lat": 37.4965411,
        "lng": 126.8512616,
        "location": "대한민국 서울특별시 구로구 경인로 290-42"
    },
    {
        "university": "세한대(당진)",
        "lat": 36.9023743,
        "lng": 126.6545022,
        "location": "대한민국 충청남도 당진시"
    },
    {
        "university": "경동대(고성)",
        "lat": 38.25066169999999,
        "lng": 128.55656,
        "location": "대한민국 강원도 고성군 토성면 봉포리 산91-1 KR"
    },
    {
        "university": "단국대(죽전)",
        "lat": 37.3215984,
        "lng": 127.1267503,
        "location": "대한민국 경기도 용인시 수지구 죽전로 152"
    },
    {
        "university": "세종대",
        "lat": 37.5518018,
        "lng": 127.0736345,
        "location": "대한민국 서울특별시 광진구 능동로 209 세종대학교"
    },
    {
        "university": "해군사관학교",
        "lat": 35.1440201,
        "lng": 128.6583659,
        "location": "대한민국 경상남도 창원시 진해구 중원로 1"
    },
    {
        "university": "한국산업기술대",
        "lat": 35.907757,
        "lng": 127.766922,
        "location": "대한민국"
    },
    {
        "university": "한양대(에리카)",
        "lat": 37.2974415,
        "lng": 126.8355968,
        "location": "대한민국 경기도 안산시 상록구 한양대학로 55"
    },
    {
        "university": "고려대(세종)",
        "lat": 36.6108968,
        "lng": 127.2864676,
        "location": "대한민국 세종특별자치시 조치원읍 세종로 2511"
    },
    {
        "university": "서원대",
        "lat": 36.62416870000001,
        "lng": 127.4828486,
        "location": "대한민국 충청북도 청주시 서원구 무심서로 377-3"
    },
    {
        "university": "극동대",
        "lat": 37.1276499,
        "lng": 127.6435375,
        "location": "대한민국 충청북도 음성군 감곡면 대학길 76-32 극동대학교"
    },
    {
        "university": "대구가톨릭대",
        "lat": 35.9120561,
        "lng": 128.8076575,
        "location": "대한민국 경상북도 경산시 하양읍 하양로 13-13"
    },
    {
        "university": "서울신학대",
        "lat": 37.4794588,
        "lng": 126.7890182,
        "location": "대한민국 경기도 부천시 호현로489번길 52"
    },
    {
        "university": "한국항공대",
        "lat": 37.599355,
        "lng": 126.8651474,
        "location": "대한민국 경기도 고양시 덕양구 항공대학로 76"
    },
    {
        "university": "성신여대",
        "lat": 37.5912999,
        "lng": 127.0221068,
        "location": "대한민국 서울특별시 성북구 보문로34다길 2"
    },
    {
        "university": "협성대",
        "lat": 37.21320350000001,
        "lng": 126.9533768,
        "location": "대한민국 경기도 화성시 최루백로 72"
    },
    {
        "university": "서울과학기술대",
        "lat": 37.6316684,
        "lng": 127.0774813,
        "location": "대한민국 서울특별시 노원구 공릉로 232"
    },
    {
        "university": "부경대",
        "lat": 35.134032,
        "lng": 129.1031735,
        "location": "대한민국 부산광역시 남구 용소로 45"
    },
    {
        "university": "춘천교대",
        "lat": 37.8590126,
        "lng": 127.7483479,
        "location": "대한민국 강원도 춘천시 공지로 126"
    },
    {
        "university": "경기대(수원)",
        "lat": 37.30048499999999,
        "lng": 127.035833,
        "location": "대한민국 경기도 수원시 영통구 광교산로 154-42"
    },
    {
        "university": "대전대",
        "lat": 36.3363135,
        "lng": 127.4582327,
        "location": "대한민국 대전광역시 동구 대학로 62"
    },
    {
        "university": "한국해양대",
        "lat": 35.0762886,
        "lng": 129.0889751,
        "location": "대한민국 부산광역시 영도구 태종로 727"
    },
    {
        "university": "가천대(글로벌)",
        "lat": 37.4507128,
        "lng": 127.1288495,
        "location": "대한민국 경기도 성남시 수정구 성남대로 1342"
    },
    {
        "university": "명지대(서울)",
        "lat": 37.5802219,
        "lng": 126.9226047,
        "location": "대한민국 서울특별시 서대문구 거북골로 34"
    },
    {
        "university": "상명대(서울)",
        "lat": 37.602638,
        "lng": 126.955252,
        "location": "대한민국 서울특별시 종로구 홍지문2길 20"
    },
    {
        "university": "서울기독대",
        "lat": 37.6009165,
        "lng": 126.9123639,
        "location": "대한민국 서울특별시 은평구 갈현로4길 26-2"
    },
    {
        "university": "안양대(안양)",
        "lat": 37.3921415,
        "lng": 126.9205866,
        "location": "대한민국 경기도 안양시 만안구 삼덕로37번길 22"
    },
    {
        "university": "건양대(대전)",
        "lat": 36.3069266,
        "lng": 127.3431559,
        "location": "대한민국 대전광역시 서구 관저동로 158"
    },
    {
        "university": "목포대",
        "lat": 34.910319,
        "lng": 126.4361795,
        "location": "대한민국 전라남도 무안군 청계면 영산로 1666"
    },
    {
        "university": "대구한의대",
        "lat": 35.795199,
        "lng": 128.775598,
        "location": "대한민국 경상북도 경산시 한의대로 1"
    },
    {
        "university": "수원대",
        "lat": 37.2092017,
        "lng": 126.9769365,
        "location": "대한민국 경기도 화성시 봉담읍 와우안길 17"
    },
    {
        "university": "꽃동네대",
        "lat": 36.5223071,
        "lng": 127.4013327,
        "location": "대한민국 충청북도 청주시 서원구 현도면 상삼길 133"
    },
    {
        "university": "대전신학대",
        "lat": 36.3500705,
        "lng": 127.4235662,
        "location": "대한민국 대전광역시 대덕구 한남로 41"
    },
    {
        "university": "전주대",
        "lat": 35.8138624,
        "lng": 127.0901078,
        "location": "대한민국 전라북도 전주시 완산구 천잠로 303"
    },
    {
        "university": "포항공과대",
        "lat": 36.0138857,
        "lng": 129.3231836,
        "location": "대한민국 경상북도 포항시 남구 청암로 77"
    },
    {
        "university": "한국교원대",
        "lat": 36.6083563,
        "lng": 127.3582209,
        "location": "대한민국 충청북도 청주시 흥덕구 강내면 태성탑연로 250"
    },
    {
        "university": "경찰대학",
        "lat": 36.74902890000001,
        "lng": 126.9565917,
        "location": "대한민국 충청남도 아산시 신창면 황산길 100-50"
    },
    {
        "university": "건국대(글로컬)",
        "lat": 36.9494546,
        "lng": 127.9083146,
        "location": "대한민국 충청북도 충주시 충원대로 268"
    },
    {
        "university": "전북대(전주)",
        "lat": 35.8468171,
        "lng": 127.1299221,
        "location": "대한민국 전라북도 전주시 덕진구 백제대로 567"
    },
    {
        "university": "감리교신학대",
        "lat": 37.5676455,
        "lng": 126.96161,
        "location": "대한민국 서울특별시 서대문구 냉천동 31"
    },
    {
        "university": "연세대(미래)",
        "lat": 37.2799875,
        "lng": 127.9016591,
        "location": "대한민국 강원도 원주시 흥업면 연세대길 1"
    },
    {
        "university": "중원대",
        "lat": 36.8188286,
        "lng": 127.7994947,
        "location": "대한민국 충청북도 괴산군 괴산읍 문무로 85"
    },
    {
        "university": "위덕대",
        "lat": 36.0152355,
        "lng": 129.2841375,
        "location": "대한민국 경상북도 경주시"
    },
    {
        "university": "한양대(서울)",
        "lat": 37.5571759,
        "lng": 127.0454092,
        "location": "대한민국 서울특별시 성동구 왕십리로 222"
    },
    {
        "university": "우송대",
        "lat": 36.3344412,
        "lng": 127.451952,
        "location": "대한민국 대전광역시 동구 백룡로 59"
    },
    {
        "university": "청운대(인천)",
        "lat": 37.4716247,
        "lng": 126.6606421,
        "location": "대한민국 인천광역시 미추홀구 숙골로 113"
    },
    {
        "university": "목포가톨릭대",
        "lat": 34.8268,
        "lng": 126.4192058,
        "location": "대한민국 전라남도 목포시 영산로 697"
    },
    {
        "university": "한국교통대(의왕)",
        "lat": 37.3624626,
        "lng": 126.9896996,
        "location": "대한민국 경기도 의왕시"
    },
    {
        "university": "강원대(춘천)",
        "lat": 37.8897796,
        "lng": 127.7398952,
        "location": "대한민국 강원도 춘천시"
    },
    {
        "university": "청주교대",
        "lat": 36.6161384,
        "lng": 127.4846008,
        "location": "대한민국 충청북도 청주시 서원구 청남로 2065"
    },
    {
        "university": "루터대",
        "lat": 37.2652684,
        "lng": 127.1131593,
        "location": "대한민국 경기도 용인시 기흥구 금화로82번길 20"
    },
    {
        "university": "숙명여대",
        "lat": 37.54647500000001,
        "lng": 126.9646916,
        "location": "대한민국 서울특별시 용산구 청파로47길 100"
    },
    {
        "university": "안동대",
        "lat": 36.5419567,
        "lng": 128.7969108,
        "location": "대한민국 경상북도 안동시 경동로 1375"
    }
]